[
  {
    "id": 1,
    "name": "MoMA",
    "address": "11 W 53rd St",
    "city": "New York",
    "country": "USA",
    "val": 4.7,
    "category": "museum",
    "lat": 40.761595199047335,
    "lng": -73.97770648620123
  },
  {
    "id": 2,
    "name": "The Met",
    "address": "1000 5th Ave",
    "city": "New York",
    "country": "USA",
    "val": 4.8,
    "category": "museum",
    "lat": 40.779509689068654,
    "lng": -73.96315817226959
  },
  {
    "id": 3,
    "name": "Central Park",
    "address": "110 W 59th St",
    "city": "New York",
    "country": "USA",
    "val": 4.8,
    "category": "park",
    "lat": 40.782595700233124,
    "lng": -73.96556753823079
  },
  {
    "id": 4,
    "name": "Katz's Delicatessen",
    "address": "205 E Houston St",
    "city": "New York",
    "country": "USA",
    "val": 4.5,
    "category": "food",
    "lat": 40.72231428318109,
    "lng": -73.98741827412042
  },
  {
    "id": 5,
    "name": "Piazza Navona",
    "address": "Piazza Navona",
    "city": "Firenze",
    "country": "Italy",
    "val": 4.7,
    "category": "square",
    "lat": 41.899187119127475,
    "lng": 12.473070506442824
  },
  {
    "id": 6,
    "name": "All'Antico Vinaio",
    "address": "Via dei Neri, 65r",
    "city": "Firenze",
    "country": "Italy",
    "val": 4.6,
    "category": "food",
    "lat": 43.76858274726116,
    "lng": 11.257473282238767
  },
  {
    "id": 7,
    "name": "High Line",
    "address": "Gansevoort Street",
    "city": "New York",
    "country": "USA",
    "val": 4.8,
    "category": "park",
    "lat": 40.748301842094385,
    "lng": -74.00484280536665
  },
  {
    "id": 8,
    "name": "Ponte Vecchio",
    "address": "Ponte Vecchio",
    "city": "Firenze",
    "country": "Italy",
    "val": 4.7,
    "category": "landmark",
    "lat": 43.76803336572917,
    "lng": 11.25308983804203
  },
  {
    "id": 9,
    "name": "Joe's Pizza",
    "address": "150 E 14th St",
    "city": "New York",
    "country": "USA",
    "val": 4.6,
    "category": "food",
    "lat": 40.733784108905816,
    "lng": -73.98775935663701
  },
  {
    "id": 10,
    "name": "Piazza del Duomo",
    "address": "Piazza del Duomo",
    "city": "Firenze",
    "country": "Italy",
    "val": 4.8,
    "category": "square",
    "lat": 43.773477206531766,
    "lng": 11.256528639489828
  }
]