[
  {
    "id": 1,
    "name": "MoMA",
    "address": "11 W 53rd St",
    "city": "New York",
    "country": "USA",
    "val": 4.7,
    "category": "Museum",
    "lat": 40.761595199047335,
    "lng": -73.97770648620123
  },
  {
    "id": 2,
    "name": "The Met",
    "address": "1000 5th Ave",
    "city": "New York",
    "country": "USA",
    "val": 4.8,
    "category": "Museum",
    "lat": 40.779509689068654,
    "lng": -73.96315817226959
  },
  {
    "id": 3,
    "name": "Central Park",
    "address": "110 W 59th St",
    "city": "New York",
    "country": "USA",
    "val": 4.8,
    "category": "Park",
    "lat": 40.782595700233124,
    "lng": -73.96556753823079
  },
  {
    "id": 4,
    "name": "Katz's Delicatessen",
    "address": "205 E Houston St",
    "city": "New York",
    "country": "USA",
    "val": 4.5,
    "category": "Food",
    "lat": 40.72231428318109,
    "lng": -73.98741827412042
  },
  {
    "id": 5,
    "name": "Piazza Navona",
    "address": "Piazza Navona",
    "city": "Firenze",
    "country": "Italy",
    "val": 4.7,
    "category": "Square",
    "lat": 41.899187119127475,
    "lng": 12.473070506442824
  },
  {
    "id": 6,
    "name": "All'Antico Vinaio",
    "address": "Via dei Neri, 65r",
    "city": "Firenze",
    "country": "Italy",
    "val": 4.6,
    "category": "Food",
    "lat": 43.76858274726116,
    "lng": 11.257473282238767
  },
  {
    "id": 7,
    "name": "High Line",
    "address": "Gansevoort Street",
    "city": "New York",
    "country": "USA",
    "val": 4.8,
    "category": "Park",
    "lat": 40.748301842094385,
    "lng": -74.00484280536665
  },
  {
    "id": 8,
    "name": "Ponte Vecchio",
    "address": "Ponte Vecchio",
    "city": "Firenze",
    "country": "Italy",
    "val": 4.7,
    "category": "Landmark",
    "lat": 43.76803336572917,
    "lng": 11.25308983804203
  },
  {
    "id": 9,
    "name": "Joe's Pizza",
    "address": "150 E 14th St",
    "city": "New York",
    "country": "USA",
    "val": 4.6,
    "category": "Food",
    "lat": 40.733784108905816,
    "lng": -73.98775935663701
  },
  {
    "id": 10,
    "name": "Piazza del Duomo",
    "address": "Piazza del Duomo",
    "city": "Firenze",
    "country": "Italy",
    "val": 4.8,
    "category": "Square",
    "lat": 43.773477206531766,
    "lng": 11.256528639489828
  },
  {
    "id": 11,
    "name": "Colosseum",
    "address": "Piazza del Colosseo, 1",
    "city": "Rome",
    "country": "Italy",
    "val": 4.8,
    "category": "museum",
    "lat": 41.890235535985525,
    "lng": 12.492230143670573,
    "video_url": "https://www.instagram.com/reels/DRXeuqwDOW0/"

  },
  {
    "id": 12,
    "name": "Forno Ceralli",
    "address": "Piazza Bambocci, 15",
    "city": "Rome",
    "country": "Italy",
    "val": 4.3,
    "category": "bakery",
    "lat": 41.80969845340661,
    "lng": 12.68084092622037,
    "video_url": "https://www.instagram.com/reels/DM2hUbgIFWl/"
  },
  {
    "id": 13,
    "name": "Fratelli TRECCA",
    "address": "Via dei Cerchi, 55",
    "city": "Rome",
    "country": "Italy",
    "val": 4.2,
    "category": "bakery",
    "lat": 41.88821276977888,
    "lng": 12.483612170458812,
    "video_url": "https://www.instagram.com/reels/DI31Z8HMy6v/"
  },
  {
    "id": 14,
    "name": "Vico Pizza&Wine Roma",
    "address": "Piazza Rondanini, 47",
    "city": "Rome",
    "country": "Italy",
    "val": 4.5,
    "category": "restaurant",
    "lat": 41.89984789214533,
    "lng": 12.47599296441766,
    "video_url": "https://www.instagram.com/reels/DJryidCI1tr/"
  },
  {
    "id": 15,
    "name": "Clorofilla Cucina & Distillati",
    "address": "Vicolo delle Grotte, 17",
    "city": "Rome",
    "country": "Italy",
    "val": 4.7,
    "category": "restaurant",
    "lat": 41.89463789411614,
    "lng": 12.472666908597398,
    "video_url": "https://www.instagram.com/reels/DHDmI4sNTae/"
  },
  {
    "id": 16,
    "name": "La Gattabuia",
    "address": "Via del Porto, 1",
    "city": "Rome",
    "country": "Italy",
    "val": 4.4,
    "category": "restaurant",
    "lat": 41.88652303474426,
    "lng": 12.477040935582055,
    "video_url": "https://www.instagram.com/reels/DQ7IBRpDXdr/"
  }
]